{
  "type": "FeatureCollection",
  "features": [
    { "type": "Feature", "geometry": { "type": "Point", "coordinates": [2.2945, 48.8584] }, "properties": { "id": 1, "name": "Eiffel Tower", "category": "landmark" } },
    { "type": "Feature", "geometry": { "type": "Point", "coordinates": [2.3376, 48.8606] }, "properties": { "id": 2, "name": "Louvre Museum", "category": "museum" } },
    { "type": "Feature", "geometry": { "type": "Point", "coordinates": [2.3499, 48.8530] }, "properties": { "id": 3, "name": "Notre-Dame", "category": "landmark" } },
    { "type": "Feature", "geometry": { "type": "Point", "coordinates": [2.3522, 48.8738] }, "properties": { "id": 4, "name": "Sacre-Coeur", "category": "landmark" } },
    { "type": "Feature", "geometry": { "type": "Point", "coordinates": [2.2950, 48.8738] }, "properties": { "id": 5, "name": "Arc de Triomphe", "category": "landmark" } },
    { "type": "Feature", "geometry": { "type": "Point", "coordinates": [2.3200, 48.8656] }, "properties": { "id": 6, "name": "Galeries Lafayette", "category": "shopping" } },
    { "type": "Feature", "geometry": { "type": "Point", "coordinates": [2.3272, 48.8604] }, "properties": { "id": 7, "name": "Palais Royal", "category": "landmark" } },
    { "type": "Feature", "geometry": { "type": "Point", "coordinates": [2.3317, 48.8612] }, "properties": { "id": 8, "name": "Opera Garnier", "category": "culture" } },
    { "type": "Feature", "geometry": { "type": "Point", "coordinates": [2.3461, 48.8534] }, "properties": { "id": 9, "name": "Centre Pompidou", "category": "museum" } },
    { "type": "Feature", "geometry": { "type": "Point", "coordinates": [2.3275, 48.8443] }, "properties": { "id": 10, "name": "Luxembourg Gardens", "category": "park" } },
    { "type": "Feature", "geometry": { "type": "Point", "coordinates": [2.3596, 48.8529] }, "properties": { "id": 11, "name": "Place des Vosges", "category": "landmark" } },
    { "type": "Feature", "geometry": { "type": "Point", "coordinates": [2.3730, 48.8566] }, "properties": { "id": 12, "name": "Place de la Bastille", "category": "landmark" } },
    { "type": "Feature", "geometry": { "type": "Point", "coordinates": [2.3387, 48.8467] }, "properties": { "id": 13, "name": "Pantheon", "category": "landmark" } },
    { "type": "Feature", "geometry": { "type": "Point", "coordinates": [2.3126, 48.8574] }, "properties": { "id": 14, "name": "Musee d'Orsay", "category": "museum" } },
    { "type": "Feature", "geometry": { "type": "Point", "coordinates": [2.3000, 48.8650] }, "properties": { "id": 15, "name": "Champs-Elysees", "category": "shopping" } },
    { "type": "Feature", "geometry": { "type": "Point", "coordinates": [2.3100, 48.8670] }, "properties": { "id": 16, "name": "Grand Palais", "category": "museum" } },
    { "type": "Feature", "geometry": { "type": "Point", "coordinates": [2.2870, 48.8560] }, "properties": { "id": 17, "name": "Trocadero", "category": "landmark" } },
    { "type": "Feature", "geometry": { "type": "Point", "coordinates": [2.3560, 48.8690] }, "properties": { "id": 18, "name": "Gare du Nord", "category": "transport" } },
    { "type": "Feature", "geometry": { "type": "Point", "coordinates": [2.3650, 48.8490] }, "properties": { "id": 19, "name": "Gare de Lyon", "category": "transport" } },
    { "type": "Feature", "geometry": { "type": "Point", "coordinates": [2.3190, 48.8760] }, "properties": { "id": 20, "name": "Moulin Rouge", "category": "culture" } },
    { "type": "Feature", "geometry": { "type": "Point", "coordinates": [2.3090, 48.8420] }, "properties": { "id": 21, "name": "Tour Montparnasse", "category": "landmark" } },
    { "type": "Feature", "geometry": { "type": "Point", "coordinates": [2.3770, 48.8630] }, "properties": { "id": 22, "name": "Pere Lachaise", "category": "landmark" } },
    { "type": "Feature", "geometry": { "type": "Point", "coordinates": [2.2770, 48.8630] }, "properties": { "id": 23, "name": "Bois de Boulogne", "category": "park" } },
    { "type": "Feature", "geometry": { "type": "Point", "coordinates": [2.3950, 48.8440] }, "properties": { "id": 24, "name": "Bois de Vincennes", "category": "park" } },
    { "type": "Feature", "geometry": { "type": "Point", "coordinates": [2.3370, 48.8390] }, "properties": { "id": 25, "name": "Jardin des Plantes", "category": "park" } },
    { "type": "Feature", "geometry": { "type": "Point", "coordinates": [2.3210, 48.8530] }, "properties": { "id": 26, "name": "Saint-Germain-des-Pres", "category": "landmark" } },
    { "type": "Feature", "geometry": { "type": "Point", "coordinates": [2.3450, 48.8640] }, "properties": { "id": 27, "name": "Le Marais", "category": "shopping" } },
    { "type": "Feature", "geometry": { "type": "Point", "coordinates": [2.2810, 48.8730] }, "properties": { "id": 28, "name": "La Defense", "category": "landmark" } },
    { "type": "Feature", "geometry": { "type": "Point", "coordinates": [2.3530, 48.8520] }, "properties": { "id": 29, "name": "Hotel de Ville", "category": "landmark" } },
    { "type": "Feature", "geometry": { "type": "Point", "coordinates": [2.3350, 48.8610] }, "properties": { "id": 30, "name": "Cafe de la Paix", "category": "restaurant" } },
    { "type": "Feature", "geometry": { "type": "Point", "coordinates": [2.3420, 48.8550] }, "properties": { "id": 31, "name": "Les Halles", "category": "shopping" } },
    { "type": "Feature", "geometry": { "type": "Point", "coordinates": [2.3250, 48.8680] }, "properties": { "id": 32, "name": "Printemps Haussmann", "category": "shopping" } },
    { "type": "Feature", "geometry": { "type": "Point", "coordinates": [2.3480, 48.8450] }, "properties": { "id": 33, "name": "Grande Mosquee", "category": "landmark" } },
    { "type": "Feature", "geometry": { "type": "Point", "coordinates": [2.3380, 48.8700] }, "properties": { "id": 34, "name": "Folies Bergere", "category": "culture" } },
    { "type": "Feature", "geometry": { "type": "Point", "coordinates": [2.2980, 48.8490] }, "properties": { "id": 35, "name": "Les Invalides", "category": "museum" } },
    { "type": "Feature", "geometry": { "type": "Point", "coordinates": [2.3060, 48.8550] }, "properties": { "id": 36, "name": "Pont Alexandre III", "category": "landmark" } },
    { "type": "Feature", "geometry": { "type": "Point", "coordinates": [2.3570, 48.8550] }, "properties": { "id": 37, "name": "Pont Neuf", "category": "landmark" } },
    { "type": "Feature", "geometry": { "type": "Point", "coordinates": [2.2920, 48.8620] }, "properties": { "id": 38, "name": "Palais de Tokyo", "category": "museum" } },
    { "type": "Feature", "geometry": { "type": "Point", "coordinates": [2.3160, 48.8730] }, "properties": { "id": 39, "name": "Place de Clichy", "category": "landmark" } },
    { "type": "Feature", "geometry": { "type": "Point", "coordinates": [2.3430, 48.8800] }, "properties": { "id": 40, "name": "Montmartre Cemetery", "category": "landmark" } },
    { "type": "Feature", "geometry": { "type": "Point", "coordinates": [2.3080, 48.8360] }, "properties": { "id": 41, "name": "Catacombs", "category": "museum" } },
    { "type": "Feature", "geometry": { "type": "Point", "coordinates": [2.3870, 48.8530] }, "properties": { "id": 42, "name": "Nation", "category": "transport" } },
    { "type": "Feature", "geometry": { "type": "Point", "coordinates": [2.3150, 48.8490] }, "properties": { "id": 43, "name": "Rodin Museum", "category": "museum" } },
    { "type": "Feature", "geometry": { "type": "Point", "coordinates": [2.3620, 48.8770] }, "properties": { "id": 44, "name": "Buttes Chaumont", "category": "park" } },
    { "type": "Feature", "geometry": { "type": "Point", "coordinates": [2.3550, 48.8590] }, "properties": { "id": 45, "name": "Republique", "category": "landmark" } },
    { "type": "Feature", "geometry": { "type": "Point", "coordinates": [2.3360, 48.8330] }, "properties": { "id": 46, "name": "Place d'Italie", "category": "landmark" } },
    { "type": "Feature", "geometry": { "type": "Point", "coordinates": [2.3030, 48.8600] }, "properties": { "id": 47, "name": "Place de la Concorde", "category": "landmark" } },
    { "type": "Feature", "geometry": { "type": "Point", "coordinates": [2.3270, 48.8590] }, "properties": { "id": 48, "name": "Sainte-Chapelle", "category": "landmark" } },
    { "type": "Feature", "geometry": { "type": "Point", "coordinates": [2.3320, 48.8520] }, "properties": { "id": 49, "name": "Shakespeare & Company", "category": "shopping" } },
    { "type": "Feature", "geometry": { "type": "Point", "coordinates": [2.3470, 48.8650] }, "properties": { "id": 50, "name": "Musee Picasso", "category": "museum" } }
  ]
}
